{
"type": "FeatureCollection",
"name": "Metro_Stations_in_DC",
"crs": { "type": "name", "properties": { "name": "urn:ogc:def:crs:OGC:1.3:CRS84" } },
"features": [
{ "type": "Feature", "properties": { "OBJECTID": 1, "GIS_ID": "mstn_007", "NAME": "Columbia Heights", "WEB_URL": "https:\/\/www.wmata.com\/rider-guide\/stations\/columbia-hghts.cfm", "LINE": "green, yellow", "ADDRESS": "3030 14TH STREET NW", "TRAININFO_": "https:\/\/www.wmata.com\/js\/nexttrain\/nexttrain.html#E04|Columbia Heights" }, "geometry": { "type": "Point", "coordinates": [ -77.032554413088235, 38.927845759196835 ] } },
{ "type": "Feature", "properties": { "OBJECTID": 2, "GIS_ID": "mstn_020", "NAME": "Georgia Ave Petworth", "WEB_URL": "https:\/\/www.wmata.com\/rider-guide\/stations\/georgia-ave.cfm", "LINE": "green, yellow", "ADDRESS": "3700 GEORGIA AVENUE NW", "TRAININFO_": "https:\/\/www.wmata.com\/js\/nexttrain\/nexttrain.html#E05|Georgia Ave-Petworth" }, "geometry": { "type": "Point", "coordinates": [ -77.023463197213701, 38.937442424091344 ] } },
{ "type": "Feature", "properties": { "OBJECTID": 3, "GIS_ID": "mstn_034", "NAME": "Takoma", "WEB_URL": "https:\/\/www.wmata.com\/rider-guide\/stations\/takoma.cfm", "LINE": "red", "ADDRESS": "327 CEDAR STREET NW", "TRAININFO_": "https:\/\/www.wmata.com\/js\/nexttrain\/nexttrain.html#B07|Takoma" }, "geometry": { "type": "Point", "coordinates": [ -77.018178992564557, 38.976086332993184 ] } },
{ "type": "Feature", "properties": { "OBJECTID": 4, "GIS_ID": "mstn_004", "NAME": "Brookland-CUA", "WEB_URL": "https:\/\/www.wmata.com\/rider-guide\/stations\/brookland.cfm", "LINE": "red", "ADDRESS": "801 MICHIGAN AVENUE NE", "TRAININFO_": "https:\/\/www.wmata.com\/js\/nexttrain\/nexttrain.html#B05|Brookland-CUA" }, "geometry": { "type": "Point", "coordinates": [ -76.994536568964193, 38.933218785528531 ] } },
{ "type": "Feature", "properties": { "OBJECTID": 5, "GIS_ID": "mstn_017", "NAME": "Fort Totten", "WEB_URL": "https:\/\/www.wmata.com\/rider-guide\/stations\/fort-totten.cfm", "LINE": "red, green, yellow", "ADDRESS": "550 GALLOWAY STREET NE", "TRAININFO_": "https:\/\/www.wmata.com\/js\/nexttrain\/nexttrain.html#B06,E06|Fort Totten" }, "geometry": { "type": "Point", "coordinates": [ -77.002205364201004, 38.951854565233262 ] } },
{ "type": "Feature", "properties": { "OBJECTID": 6, "GIS_ID": "mstn_003", "NAME": "Benning Road", "WEB_URL": "https:\/\/www.wmata.com\/rider-guide\/stations\/benning-rd.cfm", "LINE": "blue, orange, silver", "ADDRESS": "4500 BENNING ROAD NE", "TRAININFO_": "https:\/\/www.wmata.com\/js\/nexttrain\/nexttrain.html#G01|Benning Road" }, "geometry": { "type": "Point", "coordinates": [ -76.938367131914347, 38.890983463751695 ] } },
{ "type": "Feature", "properties": { "OBJECTID": 7, "GIS_ID": "mstn_009", "NAME": "Deanwood", "WEB_URL": "https:\/\/www.wmata.com\/rider-guide\/stations\/deanwood.cfm", "LINE": "orange", "ADDRESS": "4720 MINNESOTA AVENUE NE", "TRAININFO_": "https:\/\/www.wmata.com\/js\/nexttrain\/nexttrain.html#D10|Deanwood" }, "geometry": { "type": "Point", "coordinates": [ -76.935259046919157, 38.908186287852459 ] } },
{ "type": "Feature", "properties": { "OBJECTID": 8, "GIS_ID": "mstn_028", "NAME": "NoMa - Gallaudet U", "WEB_URL": "https:\/\/www.wmata.com\/rider-guide\/stations\/new-york-ave.cfm", "LINE": "red", "ADDRESS": "200 FLORIDA AVENUE NE", "TRAININFO_": "https:\/\/www.wmata.com\/js\/nexttrain\/nexttrain.html#B35|NoMa-Gallaudet U" }, "geometry": { "type": "Point", "coordinates": [ -77.003022732182899, 38.907024000728917 ] } },
{ "type": "Feature", "properties": { "OBJECTID": 9, "GIS_ID": "mstn_035", "NAME": "Tenleytown-AU", "WEB_URL": "https:\/\/www.wmata.com\/rider-guide\/stations\/tenleytown.cfm", "LINE": "red", "ADDRESS": "4501 WISCONSIN AVENUE NW", "TRAININFO_": "https:\/\/www.wmata.com\/js\/nexttrain\/nexttrain.html#A07|Tenleytown-AU" }, "geometry": { "type": "Point", "coordinates": [ -77.079589636844076, 38.94885922929322 ] } },
{ "type": "Feature", "properties": { "OBJECTID": 10, "GIS_ID": "mstn_018", "NAME": "Friendship Heights", "WEB_URL": "https:\/\/www.wmata.com\/rider-guide\/stations\/friendship-hghts.cfm", "LINE": "red", "ADDRESS": "5337 WISCONSIN AVENUE NW", "TRAININFO_": "https:\/\/www.wmata.com\/js\/nexttrain\/nexttrain.html#A08|Friendship Heights" }, "geometry": { "type": "Point", "coordinates": [ -77.084998118687963, 38.95949166976218 ] } },
{ "type": "Feature", "properties": { "OBJECTID": 11, "GIS_ID": "mstn_016", "NAME": "Foggy Bottom-GWU", "WEB_URL": "https:\/\/www.wmata.com\/rider-guide\/stations\/foggy-bottom.cfm", "LINE": "blue, orange, silver", "ADDRESS": "2301 I STREET NW", "TRAININFO_": "https:\/\/www.wmata.com\/js\/nexttrain\/nexttrain.html#C04|Foggy Bottom-GWU" }, "geometry": { "type": "Point", "coordinates": [ -77.050280038297259, 38.90070579476852 ] } },
{ "type": "Feature", "properties": { "OBJECTID": 12, "GIS_ID": "mstn_013", "NAME": "Farragut West", "WEB_URL": "https:\/\/www.wmata.com\/rider-guide\/stations\/farragut-west.cfm", "LINE": "blue, orange, silver", "ADDRESS": "900 18TH STREET NW", "TRAININFO_": "https:\/\/www.wmata.com\/js\/nexttrain\/nexttrain.html#C03|Farragut West" }, "geometry": { "type": "Point", "coordinates": [ -77.040697711445233, 38.901320680202893 ] } },
{ "type": "Feature", "properties": { "OBJECTID": 13, "GIS_ID": "mstn_012", "NAME": "Farragut North", "WEB_URL": "https:\/\/www.wmata.com\/rider-guide\/stations\/farragut-north.cfm", "LINE": "red", "ADDRESS": "1001 CONNECTICUT AVENUE NW", "TRAININFO_": "https:\/\/www.wmata.com\/js\/nexttrain\/nexttrain.html#A02|Farragut North" }, "geometry": { "type": "Point", "coordinates": [ -77.039703123343116, 38.90320973270947 ] } },
{ "type": "Feature", "properties": { "OBJECTID": 14, "GIS_ID": "mstn_010", "NAME": "Dupont Circle", "WEB_URL": "https:\/\/www.wmata.com\/rider-guide\/stations\/dupont-circle.cfm", "LINE": "red", "ADDRESS": "1525 20TH STREET NW", "TRAININFO_": "https:\/\/www.wmata.com\/js\/nexttrain\/nexttrain.html#A03|Dupont Circle" }, "geometry": { "type": "Point", "coordinates": [ -77.043416657370443, 38.909605845163675 ] } },
{ "type": "Feature", "properties": { "OBJECTID": 15, "GIS_ID": "mstn_040", "NAME": "Woodley Park-Zoo Adams Morgan", "WEB_URL": "https:\/\/www.wmata.com\/rider-guide\/stations\/woodley-park.cfm", "LINE": "red", "ADDRESS": "2700 24TH STREET NW", "TRAININFO_": "https:\/\/www.wmata.com\/js\/nexttrain\/nexttrain.html#A04|Woodley%20Park-Zoo\/Adams%20Morgan" }, "geometry": { "type": "Point", "coordinates": [ -77.052420322193214, 38.925092927477472 ] } },
{ "type": "Feature", "properties": { "OBJECTID": 16, "GIS_ID": "mstn_022", "NAME": "L'Enfant Plaza", "WEB_URL": "https:\/\/www.wmata.com\/rider-guide\/stations\/lenfant-plaza.cfm", "LINE": "grn, yllw, orange, blue, slvr", "ADDRESS": "600 MARYLAND AVENUE SW", "TRAININFO_": "https:\/\/www.wmata.com\/js\/nexttrain\/nexttrain.html#F03,D03|L'Enfant Plaza" }, "geometry": { "type": "Point", "coordinates": [ -77.021910773530166, 38.88484551131301 ] } },
{ "type": "Feature", "properties": { "OBJECTID": 17, "GIS_ID": "mstn_032", "NAME": "Smithsonian", "WEB_URL": "https:\/\/www.wmata.com\/rider-guide\/stations\/smithsonian.cfm", "LINE": "blue, orange, silver", "ADDRESS": "1200 INDEPENDENCE AVENUE SW", "TRAININFO_": "https:\/\/www.wmata.com\/js\/nexttrain\/nexttrain.html#D02|Smithsonian" }, "geometry": { "type": "Point", "coordinates": [ -77.028068525832225, 38.888026485864579 ] } },
{ "type": "Feature", "properties": { "OBJECTID": 18, "GIS_ID": "mstn_015", "NAME": "Federal Triangle", "WEB_URL": "https:\/\/www.wmata.com\/rider-guide\/stations\/federal-triangle.cfm", "LINE": "blue, orange, silver", "ADDRESS": "302 12TH STREET NW", "TRAININFO_": "https:\/\/www.wmata.com\/js\/nexttrain\/nexttrain.html#D01|Federal Triangle" }, "geometry": { "type": "Point", "coordinates": [ -77.028134290287142, 38.893188656706485 ] } },
{ "type": "Feature", "properties": { "OBJECTID": 19, "GIS_ID": "mstn_002", "NAME": "Archives-Navy Mem'l", "WEB_URL": "https:\/\/www.wmata.com\/rider-guide\/stations\/archives.cfm", "LINE": "green, yellow", "ADDRESS": "701 PENNSYLVANIA AVENUE NW", "TRAININFO_": "https:\/\/www.wmata.com\/js\/nexttrain\/nexttrain.html#F02|Archives-Navy Memorial-Penn Quarter" }, "geometry": { "type": "Point", "coordinates": [ -77.021916677974545, 38.893673008703423 ] } },
{ "type": "Feature", "properties": { "OBJECTID": 20, "GIS_ID": "mstn_039", "NAME": "Waterfront", "WEB_URL": "https:\/\/www.wmata.com\/rider-guide\/stations\/waterfront.cfm", "LINE": "green", "ADDRESS": "399 M STREET SW", "TRAININFO_": "https:\/\/www.wmata.com\/js\/nexttrain\/nexttrain.html#F04|Waterfront" }, "geometry": { "type": "Point", "coordinates": [ -77.01750749635643, 38.876469648771419 ] } },
{ "type": "Feature", "properties": { "OBJECTID": 21, "GIS_ID": "mstn_027", "NAME": "Navy Yard - Ballpark", "WEB_URL": "https:\/\/www.wmata.com\/rider-guide\/stations\/navy-yard.cfm", "LINE": "green", "ADDRESS": "200 M STREET SE", "TRAININFO_": "https:\/\/www.wmata.com\/js\/nexttrain\/nexttrain.html#F05|Navy Yard-Ballpark" }, "geometry": { "type": "Point", "coordinates": [ -77.005087935056608, 38.876488867248575 ] } },
{ "type": "Feature", "properties": { "OBJECTID": 22, "GIS_ID": "mstn_014", "NAME": "Federal Center SW", "WEB_URL": "https:\/\/www.wmata.com\/rider-guide\/stations\/federal-ctr-sw.cfm", "LINE": "orange, blue, silver", "ADDRESS": "401 3RD STREET SW", "TRAININFO_": "https:\/\/www.wmata.com\/js\/nexttrain\/nexttrain.html#D04|Federal Center SW" }, "geometry": { "type": "Point", "coordinates": [ -77.0158705045136, 38.885080138818253 ] } },
{ "type": "Feature", "properties": { "OBJECTID": 23, "GIS_ID": "mstn_021", "NAME": "Judiciary Sq", "WEB_URL": "https:\/\/www.wmata.com\/rider-guide\/stations\/judiciary-sq.cfm", "LINE": "red", "ADDRESS": "450 F STREET NW", "TRAININFO_": "https:\/\/www.wmata.com\/js\/nexttrain\/nexttrain.html#B02|Judiciary Square" }, "geometry": { "type": "Point", "coordinates": [ -77.01664124510657, 38.896098103530285 ] } },
{ "type": "Feature", "properties": { "OBJECTID": 24, "GIS_ID": "mstn_005", "NAME": "Capitol South", "WEB_URL": "https:\/\/www.wmata.com\/rider-guide\/stations\/capitol-south.cfm", "LINE": "blue, orange, silver", "ADDRESS": "355 1ST STREET SE", "TRAININFO_": "https:\/\/www.wmata.com\/js\/nexttrain\/nexttrain.html#D05|Capitol South" }, "geometry": { "type": "Point", "coordinates": [ -77.005141704154411, 38.885070284996232 ] } },
{ "type": "Feature", "properties": { "OBJECTID": 25, "GIS_ID": "mstn_023", "NAME": "McPherson Sq", "WEB_URL": "https:\/\/www.wmata.com\/rider-guide\/stations\/mcpherson-sq.cfm", "LINE": "blue, orange, silver", "ADDRESS": "1400 I STREET NW", "TRAININFO_": "https:\/\/www.wmata.com\/js\/nexttrain\/nexttrain.html#C02|McPherson Square" }, "geometry": { "type": "Point", "coordinates": [ -77.033636466218013, 38.901340583177877 ] } },
{ "type": "Feature", "properties": { "OBJECTID": 26, "GIS_ID": "mstn_024", "NAME": "Metro Center", "WEB_URL": "https:\/\/www.wmata.com\/rider-guide\/stations\/metro-center.cfm", "LINE": "red, blue, orange, silver", "ADDRESS": "607 13TH STREET NW", "TRAININFO_": "https:\/\/www.wmata.com\/js\/nexttrain\/nexttrain.html#A01,C01|Metro Center" }, "geometry": { "type": "Point", "coordinates": [ -77.028080289359153, 38.898322259102336 ] } },
{ "type": "Feature", "properties": { "OBJECTID": 27, "GIS_ID": "mstn_019", "NAME": "Gallery Pl-Chinatown", "WEB_URL": "https:\/\/www.wmata.com\/rider-guide\/stations\/gallery-place.cfm", "LINE": "red, green, yellow", "ADDRESS": "630 H STREET NW", "TRAININFO_": "https:\/\/www.wmata.com\/js\/nexttrain\/nexttrain.html#B01,F01|Gallery Pl-Chinatown" }, "geometry": { "type": "Point", "coordinates": [ -77.021917680683458, 38.898324595916023 ] } },
{ "type": "Feature", "properties": { "OBJECTID": 28, "GIS_ID": "mstn_026", "NAME": "Mt Vernon Sq - 7th St Convention Center", "WEB_URL": "https:\/\/www.wmata.com\/rider-guide\/stations\/mt-vernon-sq.cfm", "LINE": "green, yellow", "ADDRESS": "700 M STREET NW", "TRAININFO_": "https:\/\/www.wmata.com\/js\/nexttrain\/nexttrain.html#E01|Mt Vernon Sq 7th St-Convention Center" }, "geometry": { "type": "Point", "coordinates": [ -77.021916671141753, 38.906444602708468 ] } },
{ "type": "Feature", "properties": { "OBJECTID": 29, "GIS_ID": "mstn_036", "NAME": "U St\/African-Amer Civil War Memorial\/Cardozo", "WEB_URL": "https:\/\/www.wmata.com\/rider-guide\/stations\/u-street.cfm", "LINE": "green, yellow", "ADDRESS": "1300 U STREET NW", "TRAININFO_": "https:\/\/www.wmata.com\/js\/nexttrain\/nexttrain.html#E03|U%20Street\/African-Amer%20Civil%20War%20Memorial\/Cardozo" }, "geometry": { "type": "Point", "coordinates": [ -77.027498186088025, 38.917010188922774 ] } },
{ "type": "Feature", "properties": { "OBJECTID": 30, "GIS_ID": "mstn_031", "NAME": "Shaw-Howard Univ", "WEB_URL": "https:\/\/www.wmata.com\/rider-guide\/stations\/shaw-howard.cfm", "LINE": "green, yellow", "ADDRESS": "1701 8TH STREET NW", "TRAININFO_": "https:\/\/www.wmata.com\/js\/nexttrain\/nexttrain.html#E02|Shaw-Howard%20U" }, "geometry": { "type": "Point", "coordinates": [ -77.021913991970223, 38.913484660340821 ] } },
{ "type": "Feature", "properties": { "OBJECTID": 31, "GIS_ID": "mstn_037", "NAME": "Union Station", "WEB_URL": "https:\/\/www.wmata.com\/rider-guide\/stations\/union-station.cfm", "LINE": "red", "ADDRESS": "701 1ST STREET NE", "TRAININFO_": "https:\/\/www.wmata.com\/js\/nexttrain\/nexttrain.html#B03|Union%20Station" }, "geometry": { "type": "Point", "coordinates": [ -77.007416577910234, 38.897773825784128 ] } },
{ "type": "Feature", "properties": { "OBJECTID": 32, "GIS_ID": "mstn_008", "NAME": "Congress Heights", "WEB_URL": "https:\/\/www.wmata.com\/rider-guide\/stations\/congress-hghts.cfm", "LINE": "green", "ADDRESS": "1290 ALABAMA AVENUE SE", "TRAININFO_": "https:\/\/www.wmata.com\/js\/nexttrain\/nexttrain.html#F07|Congress Heights" }, "geometry": { "type": "Point", "coordinates": [ -76.988514209257715, 38.845665479611412 ] } },
{ "type": "Feature", "properties": { "OBJECTID": 33, "GIS_ID": "mstn_001", "NAME": "Anacostia", "WEB_URL": "https:\/\/www.wmata.com\/rider-guide\/stations\/anacostia.cfm", "LINE": "green", "ADDRESS": "1101 HOWARD ROAD SE", "TRAININFO_": "https:\/\/www.wmata.com\/js\/nexttrain\/nexttrain.html#F06|Anacostia" }, "geometry": { "type": "Point", "coordinates": [ -76.995373018593241, 38.862970896776822 ] } },
{ "type": "Feature", "properties": { "OBJECTID": 34, "GIS_ID": "mstn_011", "NAME": "Eastern Market", "WEB_URL": "https:\/\/www.wmata.com\/rider-guide\/stations\/eastern-market.cfm", "LINE": "blue, orange, silver", "ADDRESS": "701 PENNSYLVANIA AVENUE SE", "TRAININFO_": "https:\/\/www.wmata.com\/js\/nexttrain\/nexttrain.html#D06|Eastern Market" }, "geometry": { "type": "Point", "coordinates": [ -76.996003408070976, 38.884630045165387 ] } },
{ "type": "Feature", "properties": { "OBJECTID": 35, "GIS_ID": "mstn_029", "NAME": "Potomac Ave", "WEB_URL": "https:\/\/www.wmata.com\/rider-guide\/stations\/potomac-ave.cfm", "LINE": "blue, orange, silver", "ADDRESS": "700 14TH STREET SE", "TRAININFO_": "https:\/\/www.wmata.com\/js\/nexttrain\/nexttrain.html#D07|Potomac Ave" }, "geometry": { "type": "Point", "coordinates": [ -76.98549759753331, 38.88127105766926 ] } },
{ "type": "Feature", "properties": { "OBJECTID": 36, "GIS_ID": "mstn_033", "NAME": "Stadium Armory", "WEB_URL": "https:\/\/www.wmata.com\/rider-guide\/stations\/stadium-armory.cfm", "LINE": "blue, orange, silver", "ADDRESS": "192 19TH STREET SE", "TRAININFO_": "https:\/\/www.wmata.com\/rider-guide\/stations\/stadium-armory.cfm" }, "geometry": { "type": "Point", "coordinates": [ -76.977091177034254, 38.886716875290645 ] } },
{ "type": "Feature", "properties": { "OBJECTID": 37, "GIS_ID": "mstn_030", "NAME": "Rhode Island Ave", "WEB_URL": "https:\/\/www.wmata.com\/rider-guide\/stations\/rhode-island-ave.cfm", "LINE": "red", "ADDRESS": "919 RHODE ISLAND AVENUE NE", "TRAININFO_": "https:\/\/www.wmata.com\/js\/nexttrain\/nexttrain.html#B04|Rhode%20Island%20Ave-Brentwood" }, "geometry": { "type": "Point", "coordinates": [ -76.995939200222168, 38.921067480859712 ] } },
{ "type": "Feature", "properties": { "OBJECTID": 38, "GIS_ID": "mstn_025", "NAME": "Minnesota Ave", "WEB_URL": "https:\/\/www.wmata.com\/rider-guide\/stations\/minnesota-ave.cfm", "LINE": "orange", "ADDRESS": "400 MINNESOTA AVENUE NE", "TRAININFO_": "https:\/\/www.wmata.com\/js\/nexttrain\/nexttrain.html#D09|Minnesota Ave" }, "geometry": { "type": "Point", "coordinates": [ -76.946750000541968, 38.899199012183928 ] } },
{ "type": "Feature", "properties": { "OBJECTID": 39, "GIS_ID": "mstn_038", "NAME": "Van Ness-UDC", "WEB_URL": "https:\/\/www.wmata.com\/rider-guide\/stations\/van-ness.cfm", "LINE": "red", "ADDRESS": "4200 CONNECTICUT AVENUE NW", "TRAININFO_": "https:\/\/www.wmata.com\/js\/nexttrain\/nexttrain.html#A06|Van%20Ness-UDC" }, "geometry": { "type": "Point", "coordinates": [ -77.062988486318289, 38.943273081966801 ] } },
{ "type": "Feature", "properties": { "OBJECTID": 40, "GIS_ID": "mstn_006", "NAME": "Cleveland Park", "WEB_URL": "https:\/\/www.wmata.com\/rider-guide\/stations\/cleveland-park.cfm", "LINE": "red", "ADDRESS": "3599 CONNECTICUT AVENUE NW", "TRAININFO_": "https:\/\/www.wmata.com\/js\/nexttrain\/nexttrain.html#A05|Cleveland Park" }, "geometry": { "type": "Point", "coordinates": [ -77.058044822872105, 38.934770682922021 ] } }
]
}
